timestamp_ms,AFR,APPS1,AccelX,AccelY,AccelZ,BS2,BatV,CLT1,GyroX,GyroY,GyroZ,MAP,MAT,OilPres,OilTemp,Pitch,RPM,Roll,SIM-IN14,SIM-IN15,SIM-IN16,SIM-IN17,SIM-IN18,SIM-IN19,SIM-IN2,SIM-IN20,SIM-IN21,SIM-IN3,SIM-IN4,SIM-IN5,SIM-IN6,SIM-IN7,SIM-IN8,Yaw
2743,785.2999877929688,1707.0,-0.019316282123327255,-0.1655859351158142,-9.858611106872559,11.0,13.0,75.0999984741211,0.0006711725145578384,0.0009012231603264809,-0.008927937597036362,99.80000305175781,73.69999694824219,-0.4000000059604645,69.9000015258789,-0.22328360378742218,0.0,0.9463977813720703,17.0,15.0,417.0,15.0,8.0,0.0,13.0,2893.0,2220.0,14.0,15.0,,,,,150.33157348632812
2753,785.2999877929688,1707.0,-0.03921863064169884,-0.15800781548023224,-9.827346324920654,11.0,13.0,75.0999984741211,-8.789822459220886e-05,3.0902447178959846e-05,-0.008734213188290596,99.80000305175781,73.69999694824219,-0.4000000059604645,69.9000015258789,-0.22279322892427444,0.0,0.945519208908081,17.0,15.0,417.0,15.0,8.0,0.0,13.0,2893.0,2220.0,14.0,15.0,,,,,150.3310546875
2763,785.2999877929688,1707.0,-0.05912097916007042,-0.15042969584465027,-9.79608154296875,11.0,13.0,75.0999984741211,-0.0008469689637422562,-0.0008394182659685612,-0.00854048877954483,99.80000305175781,73.69999694824219,-0.4000000059604645,69.9000015258789,-0.2223028540611267,0.0,0.9446406364440918,17.0,15.0,417.0,15.0,8.0,0.0,13.0,2893.0,2220.0,14.0,15.0,,,,,150.33053588867188
2773,785.2999877929688,1707.0,-0.046609360724687576,-0.1613546460866928,-9.813904285430908,11.0,13.0,75.0999984741211,-0.0007370561361312866,-0.0004453059518709779,-0.00883585773408413,99.80000305175781,73.69999694824219,-0.4000000059604645,69.9000015258789,-0.2229301780462265,0.0,0.9458205997943878,17.0,15.0,417.0,15.0,8.0,0.0,13.0,2893.0,2220.0,14.0,15.0,,,,,150.33035278320312
2783,785.2999877929688,1707.0,-0.03409774228930473,-0.17227959632873535,-9.831727027893066,11.0,13.0,75.0999984741211,-0.0006271433085203171,-5.1193637773394585e-05,-0.009131226688623428,99.80000305175781,73.69999694824219,-0.4000000059604645,69.9000015258789,-0.2235575020313263,0.0,0.9470005631446838,17.0,15.0,417.0,15.0,8.0,0.0,13.0,2893.0,2220.0,14.0,15.0,,,,,150.33016967773438
2793,785.2999877929688,1707.0,-0.04308709688484669,-0.16554509103298187,-9.840121746063232,11.0,13.0,75.0999984741211,-0.0003571799024939537,0.00026574358344078064,-0.009633474983274937,99.80000305175781,73.69999694824219,-0.4000000059604645,69.9000015258789,-0.22288081794977188,0.0,0.9477491676807404,17.0,15.0,417.0,15.0,8.0,0.0,13.0,2893.0,2220.0,14.0,15.0,,,,,150.32847595214844
2803,785.2999877929688,1707.0,-0.05207645148038864,-0.1588105857372284,-9.848516464233398,11.0,13.0,75.0999984741211,-8.721649646759033e-05,0.0005826808046549559,-0.010135723277926445,99.80000305175781,73.69999694824219,-0.4000000059604645,69.9000015258789,-0.22220413386821747,0.0,0.9484977722167969,17.0,15.0,417.0,15.0,8.0,0.0,13.0,2893.0,2220.0,14.0,15.0,,,,,150.3267822265625
2813,785.2999877929688,1707.0,-0.04681778326630592,-0.1797800362110138,-9.834784507751465,11.0,13.0,75.0999984741211,-0.0003621792420744896,-0.0001221338752657175,-0.008762119337916374,99.80000305175781,73.69999694824219,-0.4000000059604645,69.9000015258789,-0.22289694100618362,0.0,0.9501069784164429,17.0,15.0,417.0,15.0,8.0,0.0,13.0,2893.0,2220.0,14.0,15.0,,,,,150.32921600341797
2823,785.2999877929688,1707.0,-0.041559115052223206,-0.2007494866847992,-9.821052551269531,11.0,13.0,75.0999984741211,-0.0006371419876813889,-0.0008269485551863909,-0.007388515397906303,99.80000305175781,73.69999694824219,-0.4000000059604645,69.9000015258789,-0.22358974814414978,0.0,0.9517161846160889,17.0,15.0,417.0,15.0,8.0,0.0,13.0,2893.0,2220.0,14.0,15.0,,,,,150.33164978027344
2833,785.2999877929688,1707.0,-0.035778675228357315,-0.18322116881608963,-9.831009864807129,11.0,13.0,75.0999984741211,-0.0008246628567576408,-0.0003490750677883625,-0.007676726207137108,99.80000305175781,73.69999694824219,-0.4000000059604645,69.9000015258789,-0.22311508655548096,0.0,0.9523746371269226,17.0,15.0,417.0,15.0,8.0,0.0,13.0,2893.0,2220.0,14.0,15.0,,,,,150.3313751220703
2843,785.2999877929688,1707.0,-0.029998235404491425,-0.16569285094738007,-9.840967178344727,11.0,13.0,75.0999984741211,-0.0010121837258338928,0.00012879841960966587,-0.007964937016367912,99.80000305175781,73.69999694824219,-0.4000000059604645,69.9000015258789,-0.22264042496681213,0.0,0.9530330896377563,17.0,15.0,417.0,15.0,8.0,0.0,13.0,2893.0,2220.0,14.0,15.0,,,,,150.3311004638672
2853,785.2999877929688,1707.0,-0.03181363642215729,-0.16261063516139984,-9.853028297424316,11.0,13.0,75.0999984741211,0.0001140134409070015,-0.00011328270193189383,-0.008493912406265736,99.80000305175781,73.69999694824219,-0.4000000059604645,69.9000015258789,-0.22337862104177475,0.0,0.9523997604846954,17.0,15.0,417.0,15.0,8.0,0.0,13.0,2893.0,2220.0,14.0,15.0,,,,,150.33071899414062
2863,785.2999877929688,1707.0,-0.03362903743982315,-0.15952841937541962,-9.865089416503906,11.0,13.0,75.0999984741211,0.0012402106076478958,-0.0003553638234734535,-0.009022887796163559,99.80000305175781,73.69999694824219,-0.4000000059604645,69.9000015258789,-0.22411681711673737,0.0,0.9517664313316345,17.0,15.0,417.0,15.0,8.0,0.0,13.0,2893.0,2220.0,14.0,15.0,,,,,150.33033752441406
2873,785.2999877929688,1707.0,-0.03259131824597716,-0.15914227440953255,-9.848793983459473,11.0,13.0,75.0999984741211,0.0009560412727296352,-0.0005292086862027645,-0.009062255034223199,99.80000305175781,73.69999694824219,-0.4000000059604645,69.9000015258789,-0.22380633279681206,0.0,0.9519683420658112,17.0,15.0,417.0,15.0,8.0,0.0,13.0,2893.0,2220.0,14.0,15.0,,,,,150.33101654052734
2883,785.2999877929688,1707.0,-0.031553599052131176,-0.15875612944364548,-9.832498550415039,11.0,13.0,75.0999984741211,0.0006718719378113747,-0.0007030535489320755,-0.009101622272282839,99.80000305175781,73.69999694824219,-0.4000000059604645,69.9000015258789,-0.22349584847688675,0.0,0.9521702527999878,17.0,15.0,417.0,15.0,8.0,0.0,13.0,2893.0,2220.0,14.0,15.0,,,,,150.33169555664062
2893,785.2999877929688,1707.0,-0.03051587985828519,-0.1583699844777584,-9.81679391860962,11.0,13.0,75.0999984741211,0.0003877026028931141,-0.0008768984116613865,-0.009140989510342479,99.80000305175781,73.69999694824219,-0.4000000059604645,69.9000015258789,-0.22318536415696144,0.0,0.9523721635341644,17.0,15.0,417.0,15.0,8.0,0.0,13.0,2893.0,2220.0,14.0,15.0,,,,,150.3323745727539
2903,785.2999877929688,1707.0,-0.0294781606644392,-0.15798383951187134,-9.8010892868042,11.0,13.0,75.0999984741211,0.00010353326797485352,-0.0010507432743906975,-0.009180356748402119,99.80000305175781,73.69999694824219,-0.4000000059604645,69.9000015258789,-0.22287487983703613,0.0,0.9525740742683411,17.0,15.0,417.0,15.0,8.0,0.0,13.0,2893.0,2220.0,14.0,15.0,,,,,150.3330535888672
2913,785.2999877929688,1707.0,-0.029285939410328865,-0.1618364080786705,-9.828392505645752,11.0,13.0,75.0999984741211,0.0002601407468318939,-0.0006317404331639409,-0.009451847057789564,99.80000305175781,73.69999694824219,-0.4000000059604645,69.9000015258789,-0.2225012630224228,0.0,0.9521321952342987,17.0,15.0,417.0,15.0,8.0,0.0,13.0,2893.0,2220.0,14.0,15.0,,,,,150.33111572265625
2923,785.2999877929688,1707.0,-0.02909371815621853,-0.16568897664546967,-9.855695724487305,11.0,13.0,75.0999984741211,0.0004167482256889343,-0.00021273759193718433,-0.00972333736717701,99.80000305175781,73.69999694824219,-0.4000000059604645,69.9000015258789,-0.22212764620780945,0.0,0.9516903162002563,17.0,15.0,417.0,15.0,8.0,0.0,13.0,2893.0,2220.0,14.0,15.0,,,,,150.3291778564453
2933,785.2999877929688,1707.0,-0.04686726909130812,-0.1657024547457695,-9.866864204406738,11.0,13.0,75.0999984741211,0.0003046579658985138,-0.00012185191735625267,-0.00924317492172122,99.80000305175781,73.69999694824219,-0.4000000059604645,69.9000015258789,-0.22170080989599228,0.0,0.9519886672496796,17.0,15.0,417.0,15.0,8.0,0.0,13.0,2893.0,2220.0,14.0,15.0,,,,,150.32965850830078
2943,785.2999877929688,1707.0,-0.0646408200263977,-0.16571593284606934,-9.878032684326172,11.0,13.0,75.0999984741211,0.00019256770610809326,-3.096624277532101e-05,-0.00876301247626543,99.80000305175781,73.69999694824219,-0.4000000059604645,69.9000015258789,-0.2212739735841751,0.0,0.9522870182991028,17.0,15.0,417.0,15.0,8.0,0.0,13.0,2893.0,2220.0,14.0,15.0,,,,,150.33013916015625
2953,785.2999877929688,1707.0,-0.049485186114907265,-0.16875359416007996,-9.856223106384277,11.0,13.0,75.0999984741211,1.698080450296402e-05,-0.00045871734619140625,-0.008890347555279732,99.80000305175781,73.69999694824219,-0.4000000059604645,69.9000015258789,-0.2206549346446991,0.0,0.9521050453186035,17.0,15.0,417.0,15.0,8.0,0.0,13.0,2893.0,2220.0,14.0,15.0,,,,,150.32927703857422
2963,785.2999877929688,1707.0,-0.034329552203416824,-0.17179125547409058,-9.834413528442383,11.0,13.0,75.0999984741211,-0.00015860609710216522,-0.0008864684496074915,-0.009017682634294033,99.80000305175781,73.69999694824219,-0.4000000059604645,69.9000015258789,-0.22003589570522308,0.0,0.9519230723381042,17.0,15.0,417.0,15.0,8.0,0.0,13.0,2893.0,2220.0,14.0,15.0,,,,,150.3284149169922
2973,785.2999877929688,1707.0,-0.03427054165346417,-0.1717452813105978,-9.834399390372502,11.0,13.0,75.0999984741211,-0.00015735518851667452,-0.0008852787332158464,-0.008995995868685519,99.80000305175781,73.69999694824219,-0.4000000059604645,69.9000015258789,-0.22001645946578616,0.0,0.9518834749224839,17.0,15.0,417.0,15.0,8.0,0.0,13.0,2893.0,2220.0,14.0,15.0,,,,,150.32877665720167
2983,785.2999877929688,1707.0,-0.03421153110351152,-0.17169930714710502,-9.834385252302619,11.0,13.0,75.0999984741211,-0.00015610427993118385,-0.0008840890168242014,-0.008974309103077005,99.80000305175781,73.69999694824219,-0.4000000059604645,69.9000015258789,-0.21999702322634923,0.0,0.9518438775068635,17.0,15.0,417.0,15.0,8.0,0.0,13.0,2893.0,2220.0,14.0,15.0,,,,,150.32913839741119
2993,785.2999877929688,1707.0,-0.03415252055355888,-0.17165333298361227,-9.834371114232738,11.0,13.0,75.0999984741211,-0.00015485337134569314,-0.0008828993004325564,-0.008952622337468491,99.80000305175781,73.69999694824219,-0.4000000059604645,69.9000015258789,-0.21997758698691228,0.0,0.9518042800912432,17.0,15.0,417.0,15.0,8.0,0.0,13.0,2893.0,2220.0,14.0,15.0,,,,,150.32950013762067
3003,785.2999877929688,1707.0,-0.03409351000360623,-0.1716073588201195,-9.834356976162855,11.0,13.0,75.0999984741211,-0.00015360246276020244,-0.0008817095840409114,-0.008930935571859977,99.80000305175781,73.69999694824219,-0.4000000059604645,69.9000015258789,-0.21995815074747535,0.0,0.9517646826756229,17.0,15.0,417.0,15.0,8.0,0.0,13.0,2893.0,2220.0,14.0,15.0,,,,,150.32986187783015
3013,785.2999877929688,1707.0,-0.034034499453653576,-0.1715613846566267,-9.834342838092974,11.0,13.0,75.0999984741211,-0.00015235155417471174,-0.0008805198676492663,-0.008909248806251461,99.80000305175781,73.69999694824219,-0.4000000059604645,69.9000015258789,-0.21993871450803842,0.0,0.9517250852600024,17.0,15.0,417.0,15.0,8.0,0.0,13.0,2893.0,2220.0,14.0,15.0,,,,,150.33022361803967
3023,785.2999877929688,1707.0,-0.033975488903700925,-0.17151541049313393,-9.834328700023093,11.0,13.0,75.0999984741211,-0.00015110064558922107,-0.0008793301512576212,-0.008887562040642947,99.80000305175781,73.69999694824219,-0.4000000059604645,69.9000015258789,-0.2199192782686015,0.0,0.9516854878443821,17.0,15.0,417.0,15.0,8.0,0.0,13.0,2893.0,2220.0,14.0,15.0,,,,,150.33058535824915
3033,785.2999877929688,1707.0,-0.033916478353748274,-0.17146943632964115,-9.83431456195321,11.0,13.0,75.0999984741211,-0.00014984973700373036,-0.0008781404348659763,-0.008865875275034433,99.80000305175781,73.69999694824219,-0.4000000059604645,69.9000015258789,-0.21989984202916454,0.0,0.9516458904287618,17.0,15.0,417.0,15.0,8.0,0.0,13.0,2893.0,2220.0,14.0,15.0,,,,,150.33094709845864
3043,785.2999877929688,1707.0,-0.03385746780379563,-0.1714234621661484,-9.83430042388333,11.0,13.0,75.0999984741211,-0.00014859882841823966,-0.0008769507184743312,-0.00884418850942592,99.80000305175781,73.69999694824219,-0.4000000059604645,69.9000015258789,-0.21988040578972762,0.0,0.9516062930131414,17.0,15.0,417.0,15.0,8.0,0.0,13.0,2893.0,2220.0,14.0,15.0,,,,,150.33130883866815
3053,785.2999877929688,1707.0,-0.03379845725384298,-0.17137748800265562,-9.834286285813446,11.0,13.0,75.0999984741211,-0.00014734791983274896,-0.0008757610020826861,-0.008822501743817405,99.80000305175781,73.69999694824219,-0.4000000059604645,69.9000015258789,-0.2198609695502907,0.0,0.951566695597521,17.0,15.0,417.0,15.0,8.0,0.0,13.0,2893.0,2220.0,14.0,15.0,,,,,150.33167057887763
3063,785.2999877929688,1707.0,-0.03373944670389033,-0.17133151383916284,-9.834272147743565,11.0,13.0,75.0999984741211,-0.00014609701124725829,-0.0008745712856910411,-0.008800814978208891,99.80000305175781,73.69999694824219,-0.4000000059604645,69.9000015258789,-0.21984153331085377,0.0,0.9515270981819007,17.0,15.0,417.0,15.0,8.0,0.0,13.0,2893.0,2220.0,14.0,15.0,,,,,150.33203231908712
3073,785.2999877929688,1707.0,-0.033680436153937676,-0.17128553967567006,-9.834258009673684,11.0,13.0,75.0999984741211,-0.00014484610266176758,-0.000873381569299396,-0.008779128212600377,99.80000305175781,73.69999694824219,-0.4000000059604645,69.9000015258789,-0.2198220970714168,0.0,0.9514875007662803,17.0,15.0,417.0,15.0,8.0,0.0,13.0,2893.0,2220.0,14.0,15.0,,,,,150.33239405929663
3083,785.2999877929688,1707.0,-0.033621425603985025,-0.17123956551217728,-9.834243871603801,11.0,13.0,75.0999984741211,-0.00014359519407627688,-0.000872191852907751,-0.008757441446991863,99.80000305175781,73.69999694824219,-0.4000000059604645,69.9000015258789,-0.21980266083197988,0.0,0.95144790335066,17.0,15.0,417.0,15.0,8.0,0.0,13.0,2893.0,2220.0,14.0,15.0,,,,,150.33275579950612
3093,785.2999877929688,1707.0,-0.033562415054032374,-0.1711935913486845,-9.83422973353392,11.0,13.0,75.0999984741211,-0.0001423442854907862,-0.000871002136516106,-0.00873575468138335,99.80000305175781,73.69999694824219,-0.4000000059604645,69.9000015258789,-0.21978322459254296,0.0,0.9514083059350397,17.0,15.0,417.0,15.0,8.0,0.0,13.0,2893.0,2220.0,14.0,15.0,,,,,150.3331175397156
3103,785.2999877929688,1707.0,-0.03350340450407973,-0.17114761718519175,-9.834215595464038,11.0,13.0,75.0999984741211,-0.0001410933769052955,-0.0008698124201244609,-0.008714067915774835,99.80000305175781,73.69999694824219,-0.4000000059604645,69.9000015258789,-0.21976378835310603,0.0,0.9513687085194192,17.0,15.0,417.0,15.0,8.0,0.0,13.0,2893.0,2220.0,14.0,15.0,,,,,150.33347927992511
3113,785.2999877929688,1707.0,-0.03344439395412708,-0.17110164302169897,-9.834201457394157,11.0,13.0,75.0999984741211,-0.0001398424683198048,-0.0008686227037328159,-0.00869238115016632,99.80000305175781,73.69999694824219,-0.4000000059604645,69.9000015258789,-0.21974435211366908,0.0,0.9513291111037989,17.0,15.0,417.0,15.0,8.0,0.0,13.0,2893.0,2220.0,14.0,15.0,,,,,150.3338410201346
3123,785.2999877929688,1707.0,-0.03338538340417443,-0.1710556688582062,-9.834187319324275,11.0,13.0,75.0999984741211,-0.0001385915597343141,-0.0008674329873411709,-0.008670694384557805,99.80000305175781,73.69999694824219,-0.4000000059604645,69.9000015258789,-0.21972491587423215,0.0,0.9512895136881786,17.0,15.0,417.0,15.0,8.0,0.0,13.0,2893.0,2220.0,14.0,15.0,,,,,150.3342027603441
3133,785.2999877929688,1707.0,-0.03332637285422178,-0.17100969469471342,-9.834173181254393,11.0,13.0,75.0999984741211,-0.0001373406511488234,-0.0008662432709495258,-0.008649007618949291,99.80000305175781,73.69999694824219,-0.4000000059604645,69.9000015258789,-0.21970547963479523,0.0,0.9512499162725582,17.0,15.0,417.0,15.0,8.0,0.0,13.0,2893.0,2220.0,14.0,15.0,,,,,150.3345645005536
3143,785.2999877929688,1707.0,-0.033267362304269125,-0.17096372053122064,-9.834159043184512,11.0,13.0,75.0999984741211,-0.00013608974256333273,-0.0008650535545578808,-0.008627320853340777,99.80000305175781,73.69999694824219,-0.4000000059604645,69.9000015258789,-0.2196860433953583,0.0,0.9512103188569379,17.0,15.0,417.0,15.0,8.0,0.0,13.0,2893.0,2220.0,14.0,15.0,,,,,150.33492624076308
3153,785.2999877929688,1707.0,-0.03320835175431648,-0.17091774636772789,-9.834144905114629,11.0,13.0,75.0999984741211,-0.00013483883397784202,-0.0008638638381662357,-0.008605634087732263,99.80000305175781,73.69999694824219,-0.4000000059604645,69.9000015258789,-0.21966660715592135,0.0,0.9511707214413175,17.0,15.0,417.0,15.0,8.0,0.0,13.0,2893.0,2220.0,14.0,15.0,,,,,150.3352879809726
3163,785.2999877929688,1707.0,-0.03314934120436383,-0.1708717722042351,-9.834130767044748,11.0,13.0,75.0999984741211,-0.00013358792539235132,-0.0008626741217745908,-0.00858394732212375,99.80000305175781,73.69999694824219,-0.4000000059604645,69.9000015258789,-0.21964717091648442,0.0,0.9511311240256972,17.0,15.0,417.0,15.0,8.0,0.0,13.0,2893.0,2220.0,14.0,15.0,,,,,150.33564972118208
3173,785.2999877929688,1707.0,-0.03309033065441118,-0.17082579804074233,-9.834116628974867,11.0,13.0,75.0999984741211,-0.00013233701680686065,-0.0008614844053829457,-0.008562260556515235,99.80000305175781,73.69999694824219,-0.4000000059604645,69.9000015258789,-0.2196277346770475,0.0,0.9510915266100768,17.0,15.0,417.0,15.0,8.0,0.0,13.0,2893.0,2220.0,14.0,15.0,,,,,150.33601146139156
3183,785.2999877929688,1707.0,-0.03303132010445853,-0.17077982387724955,-9.834102490904984,11.0,13.0,75.0999984741211,-0.00013108610822136995,-0.0008602946889913006,-0.008540573790906721,99.80000305175781,73.69999694824219,-0.4000000059604645,69.9000015258789,-0.21960829843761057,0.0,0.9510519291944565,17.0,15.0,417.0,15.0,8.0,0.0,13.0,2893.0,2220.0,14.0,15.0,,,,,150.33637320160108
3193,785.2999877929688,1707.0,-0.03297230955450588,-0.17073384971375677,-9.834088352835103,11.0,13.0,75.0999984741211,-0.00012983519963587925,-0.0008591049725996556,-0.008518887025298207,99.80000305175781,73.69999694824219,-0.4000000059604645,69.9000015258789,-0.2195888621981736,0.0,0.9510123317788362,17.0,15.0,417.0,15.0,8.0,0.0,13.0,2893.0,2220.0,14.0,15.0,,,,,150.33673494181056
3203,785.2999877929688,1707.0,-0.03291329900455323,-0.17068787555026402,-9.83407421476522,11.0,13.0,75.0999984741211,-0.00012858429105038854,-0.0008579152562080105,-0.008497200259689693,99.80000305175781,73.69999694824219,-0.4000000059604645,69.9000015258789,-0.21956942595873669,0.0,0.9509727343632157,17.0,15.0,417.0,15.0,8.0,0.0,13.0,2893.0,2220.0,14.0,15.0,,,,,150.33709668202005
3213,785.2999877929688,1707.0,-0.03285428845460058,-0.17064190138677124,-9.834060076695339,11.0,13.0,75.0999984741211,-0.00012733338246489787,-0.0008567255398163655,-0.008475513494081178,99.80000305175781,73.69999694824219,-0.4000000059604645,69.9000015258789,-0.21954998971929976,0.0,0.9509331369475954,17.0,15.0,417.0,15.0,8.0,0.0,13.0,2893.0,2220.0,14.0,15.0,,,,,150.33745842222956
3223,785.2999877929688,1706.9967845659164,-0.03279527790464793,-0.17059592722327846,-9.834045938625458,11.0,13.0,75.0999984741211,-0.00012608247387940717,-0.0008555358234247205,-0.008453826728472663,99.80000305175781,73.69999694824219,-0.4000000059604645,69.9000015258789,-0.21953055347986283,0.0,0.9508935395319751,17.0,15.0,417.0,15.0,8.0,0.0,12.996784565916398,2893.0,2220.0,14.004926108374384,14.994652406417112,,,,,150.33782016243904
3233,785.2999877929688,1706.9935691318328,-0.03273626735469528,-0.17054995305978568,-9.834031800555575,11.0,13.0,75.0999984741211,-0.00012483156529391647,-0.0008543461070330754,-0.00843213996286415,99.80000305175781,73.69999694824219,-0.4000000059604645,69.9000015258789,-0.21951111724042588,0.0,0.9508539421163547,17.0,15.0,417.0,15.0,8.0,0.0,12.993569131832798,2893.0,2220.0,14.009852216748769,14.989304812834225,,,,,150.33818190264853
3243,785.2999877929688,1706.9903536977492,-0.03267725680474263,-0.1705039788962929,-9.834017662485694,11.0,13.0,75.0999984741211,-0.0001235806567084258,-0.0008531563906414303,-0.008410453197255635,99.80000305175781,73.69999694824219,-0.4000000059604645,69.9000015258789,-0.21949168100098895,0.0,0.9508143447007343,17.0,15.0,417.0,15.0,8.0,0.0,12.990353697749196,2893.0,2220.0,14.014778325123153,14.983957219251337,,,,,150.33854364285804
3253,785.2999877929688,1706.9871382636657,-0.032618246254789984,-0.17045800473280015,-9.834003524415811,11.0,13.0,75.0999984741211,-0.0001223297481229351,-0.0008519666742497854,-0.008388766431647121,99.80000305175781,73.69999694824219,-0.4000000059604645,69.9000015258789,-0.21947224476155203,0.0,0.950774747285114,17.0,15.0,417.0,15.0,8.0,0.0,12.987138263665594,2893.0,2220.0,14.019704433497537,14.97860962566845,,,,,150.33890538306753
3263,785.2999877929688,1706.983922829582,-0.03255923570483733,-0.17041203056930737,-9.83398938634593,11.0,13.0,75.0999984741211,-0.00012107883953744439,-0.0008507769578581403,-0.008367079666038607,99.80000305175781,73.69999694824219,-0.4000000059604645,69.9000015258789,-0.2194528085221151,0.0,0.9507351498694936,17.0,15.0,417.0,15.0,8.0,0.0,12.983922829581994,2893.0,2220.0,14.024630541871922,14.973262032085561,,,,,150.339267123277
3273,785.2999877929688,1706.9807073954985,-0.03250022515488468,-0.1703660564058146,-9.83397524827605,11.0,13.0,75.0999984741211,-0.00011982793095195369,-0.0008495872414664953,-0.008345392900430093,99.80000305175781,73.69999694824219,-0.4000000059604645,69.9000015258789,-0.21943337228267815,0.0,0.9506955524538733,17.0,15.0,417.0,15.0,8.0,0.0,12.980707395498392,2893.0,2220.0,14.029556650246306,14.967914438502675,,,,,150.33962886348652
3283,785.2999877929688,1706.977491961415,-0.03244121460493203,-0.1703200822423218,-9.833961110206166,11.0,13.0,75.0999984741211,-0.000118577022366463,-0.0008483975250748502,-0.00832370613482158,99.80000305175781,73.69999694824219,-0.4000000059604645,69.9000015258789,-0.21941393604324122,0.0,0.950655955038253,17.0,15.0,417.0,15.0,8.0,0.0,12.97749196141479,2893.0,2220.0,14.03448275862069,14.962566844919786,,,,,150.339990603696
3293,785.2999877929688,1706.974276527331,-0.03238220405497938,-0.17027410807882903,-9.833946972136285,11.0,13.0,75.0999984741211,-0.00011732611378097231,-0.0008472078086832051,-0.008302019369213065,99.80000305175781,73.69999694824219,-0.4000000059604645,69.9000015258789,-0.2193944998038043,0.0,0.9506163576226325,17.0,15.0,417.0,15.0,8.0,0.0,12.97427652733119,2893.0,2220.0,14.039408866995075,14.957219251336898,,,,,150.3403523439055
3303,785.2999877929688,1706.9710610932475,-0.03232319350502673,-0.17022813391533625,-9.833932834066403,11.0,13.0,75.0999984741211,-0.00011607520519548161,-0.0008460180922915602,-0.008280332603604551,99.80000305175781,73.69999694824219,-0.4000000059604645,69.9000015258789,-0.21937506356436737,0.0,0.9505767602070122,17.0,15.0,417.0,15.0,8.0,0.0,12.971061093247588,2893.0,2220.0,14.044334975369457,14.95187165775401,,,,,150.340714084115
3313,785.2999877929688,1706.967845659164,-0.032264182955074085,-0.1701821597518435,-9.833918695996521,11.0,13.0,75.0999984741211,-0.0001148242966099909,-0.0008448283758999151,-0.008258645837996036,99.80000305175781,73.69999694824219,-0.4000000059604645,69.9000015258789,-0.2193556273249304,0.0,0.9505371627913919,17.0,15.0,417.0,15.0,8.0,0.0,12.967845659163988,2893.0,2220.0,14.049261083743842,14.946524064171124,,,,,150.3410758243245
3323,785.2999877929688,1706.9646302250803,-0.032205172405121434,-0.17013618558835072,-9.83390455792664,11.0,13.0,75.0999984741211,-0.00011357338802450022,-0.0008436386595082701,-0.008236959072387522,99.80000305175781,73.69999694824219,-0.4000000059604645,69.9000015258789,-0.2193361910854935,0.0,0.9504975653757715,17.0,15.0,417.0,15.0,8.0,0.0,12.964630225080386,2893.0,2220.0,14.054187192118226,14.941176470588236,,,,,150.34143756453398
3333,785.2999877929688,1706.9614147909967,-0.03214616185516878,-0.17009021142485795,-9.833890419856758,11.0,13.0,75.0999984741211,-0.00011232247943900953,-0.000842448943116625,-0.008215272306779008,99.80000305175781,73.69999694824219,-0.4000000059604645,69.9000015258789,-0.21931675484605656,0.0,0.9504579679601511,17.0,15.0,417.0,15.0,8.0,0.0,12.961414790996784,2893.0,2220.0,14.05911330049261,14.935828877005347,,,,,150.3417993047435
3343,785.2999877929688,1706.9581993569132,-0.03208715130521613,-0.17004423726136517,-9.833876281786877,11.0,13.0,75.0999984741211,-0.00011107157085351883,-0.00084125922672498,-0.008193585541170494,99.80000305175781,73.69999694824219,-0.4000000059604645,69.9000015258789,-0.21929731860661963,0.0,0.9504183705445308,17.0,15.0,417.0,15.0,8.0,0.0,12.958199356913184,2893.0,2220.0,14.064039408866995,14.93048128342246,,,,,150.34216104495297
3353,785.2999877929688,1706.9549839228296,-0.03202814075526348,-0.1699982630978724,-9.833862143716994,11.0,13.0,75.0999984741211,-0.00010982066226802813,-0.000840069510333335,-0.00817189877556198,99.80000305175781,73.69999694824219,-0.4000000059604645,69.9000015258789,-0.21927788236718268,0.0,0.9503787731289104,17.0,15.0,417.0,15.0,8.0,0.0,12.954983922829582,2893.0,2220.0,14.068965517241379,14.925133689839573,,,,,150.34252278516246
3363,785.2999877929688,1706.951768488746,-0.031969130205310836,-0.16995228893437964,-9.833848005647113,11.0,13.0,75.0999984741211,-0.00010856975368253744,-0.0008388797939416899,-0.008150212009953466,99.80000305175781,73.69999694824219,-0.4000000059604645,69.9000015258789,-0.21925844612774575,0.0,0.9503391757132901,17.0,15.0,417.0,15.0,8.0,0.0,12.95176848874598,2893.0,2220.0,14.073891625615763,14.919786096256685,,,,,150.34288452537197
3373,785.2999877929688,1706.9485530546624,-0.031910119655358185,-0.16990631477088686,-9.833833867577232,11.0,13.0,75.0999984741211,-0.00010731884509704675,-0.0008376900775500448,-0.008128525244344952,99.80000305175781,73.69999694824219,-0.4000000059604645,69.9000015258789,-0.21923900988830883,0.0,0.9502995782976698,17.0,15.0,417.0,15.0,8.0,0.0,12.94855305466238,2893.0,2220.0,14.078817733990148,14.914438502673796,,,,,150.34324626558146
3383,785.2999877929688,1706.9453376205788,-0.031851109105405534,-0.16986034060739408,-9.833819729507349,11.0,13.0,75.0999984741211,-0.00010606793651155605,-0.0008365003611583998,-0.008106838478736438,99.80000305175781,73.69999694824219,-0.4000000059604645,69.9000015258789,-0.2192195736488719,0.0,0.9502599808820493,17.0,15.0,417.0,15.0,8.0,0.0,12.945337620578778,2893.0,2220.0,14.083743842364532,14.909090909090908,,,,,150.34360800579094
3393,785.2999877929688,1706.9421221864952,-0.03179209855545288,-0.1698143664439013,-9.833805591437468,11.0,13.0,75.0999984741211,-0.00010481702792606536,-0.0008353106447667548,-0.008085151713127924,99.80000305175781,73.69999694824219,-0.4000000059604645,69.9000015258789,-0.21920013740943495,0.0,0.950220383466429,17.0,15.0,417.0,15.0,8.0,0.0,12.942122186495176,2893.0,2220.0,14.088669950738916,14.903743315508022,,,,,150.34396974600045
3403,785.2999877929688,1706.9389067524116,-0.03173308800550023,-0.16976839228040852,-9.833791453367585,11.0,13.0,75.0999984741211,-0.00010356611934057467,-0.0008341209283751097,-0.00806346494751941,99.80000305175781,73.69999694824219,-0.4000000059604645,69.9000015258789,-0.21918070116999802,0.0,0.9501807860508087,17.0,15.0,417.0,15.0,8.0,0.0,12.938906752411576,2893.0,2220.0,14.0935960591133,14.898395721925134,,,,,150.34433148620994
3413,785.2999877929688,1706.935691318328,-0.03167407745554759,-0.16972241811691577,-9.833777315297704,11.0,13.0,75.0999984741211,-0.00010231521075508397,-0.0008329312119834647,-0.008041778181910894,99.80000305175781,73.69999694824219,-0.4000000059604645,69.9000015258789,-0.2191612649305611,0.0,0.9501411886351883,17.0,15.0,417.0,15.0,8.0,0.0,12.935691318327974,2893.0,2220.0,14.098522167487685,14.893048128342246,,,,,150.34469322641942
3423,785.2999877929688,1706.9324758842445,-0.03161506690559494,-0.169676443953423,-9.833763177227823,11.0,13.0,75.0999984741211,-0.00010106430216959327,-0.0008317414955918196,-0.00802009141630238,99.80000305175781,73.69999694824219,-0.4000000059604645,69.9000015258789,-0.21914182869112417,0.0,0.9501015912195679,17.0,15.0,417.0,15.0,8.0,0.0,12.932475884244372,2893.0,2220.0,14.10344827586207,14.88770053475936,,,,,150.34505496662894
3433,785.2999877929688,1706.9292604501609,-0.031556056355642285,-0.1696304697899302,-9.83374903915794,11.0,13.0,75.0999984741211,-9.981339358410258e-05,-0.0008305517792001747,-0.007998404650693866,99.80000305175781,73.69999694824219,-0.4000000059604645,69.9000015258789,-0.21912239245168721,0.0,0.9500619938039476,17.0,15.0,417.0,15.0,8.0,0.0,12.929260450160772,2893.0,2220.0,14.108374384236454,14.882352941176471,,,,,150.34541670683842
3443,785.2999877929688,1706.926045016077,-0.031497045805689634,-0.16958449562643743,-9.833734901088059,11.0,13.0,75.0999984741211,-9.856248499861189e-05,-0.0008293620628085296,-0.007976717885085352,99.80000305175781,73.69999694824219,-0.4000000059604645,69.9000015258789,-0.2191029562122503,0.0,0.9500223963883272,17.0,15.0,417.0,15.0,8.0,0.0,12.92604501607717,2893.0,2220.0,14.113300492610838,14.877005347593583,,,,,150.34577844704793
3453,785.2999877929688,1706.9228295819935,-0.03143803525573698,-0.16953852146294465,-9.833720763018176,11.0,13.0,75.0999984741211,-9.731157641312119e-05,-0.0008281723464168845,-0.007955031119476838,99.80000305175781,73.69999694824219,-0.4000000059604645,69.9000015258789,-0.21908351997281336,0.0,0.9499827989727069,17.0,15.0,417.0,15.0,8.0,0.0,12.92282958199357,2893.0,2220.0,14.118226600985222,14.871657754010695,,,,,150.34614018725742
3463,785.2999877929688,1706.91961414791,-0.03137902470578434,-0.1694925472994519,-9.833706624948295,11.0,13.0,75.0999984741211,-9.60606678276305e-05,-0.0008269826300252395,-0.007933344353868324,99.80000305175781,73.69999694824219,-0.4000000059604645,69.9000015258789,-0.21906408373337644,0.0,0.9499432015570866,17.0,15.0,417.0,15.0,8.0,0.0,12.919614147909968,2893.0,2220.0,14.123152709359607,14.866310160427808,,,,,150.3465019274669
3473,785.2999877929688,1706.9163987138263,-0.03132001415583169,-0.16944657313595912,-9.833692486878414,11.0,13.0,75.0999984741211,-9.48097592421398e-05,-0.0008257929136335944,-0.00791165758825981,99.80000305175781,73.69999694824219,-0.4000000059604645,69.9000015258789,-0.21904464749393948,0.0,0.9499036041414661,17.0,15.0,417.0,15.0,8.0,0.0,12.916398713826366,2893.0,2220.0,14.12807881773399,14.86096256684492,,,,,150.34686366767642
3483,785.2999877929688,1706.9131832797427,-0.03126100360587904,-0.16940059897246634,-9.833678348808531,11.0,13.0,75.0999984741211,-9.355885065664911e-05,-0.0008246031972419495,-0.007889970822651296,99.80000305175781,73.69999694824219,-0.4000000059604645,69.9000015258789,-0.21902521125450256,0.0,0.9498640067258458,17.0,15.0,417.0,15.0,8.0,0.0,12.913183279742766,2893.0,2220.0,14.133004926108374,14.855614973262032,,,,,150.3472254078859
3493,785.2999877929688,1706.9099678456591,-0.031201993055926386,-0.16935462480897356,-9.83366421073865,11.0,13.0,75.0999984741211,-9.230794207115841e-05,-0.0008234134808503044,-0.007868284057042782,99.80000305175781,73.69999694824219,-0.4000000059604645,69.9000015258789,-0.21900577501506563,0.0,0.9498244093102255,17.0,15.0,417.0,15.0,8.0,0.0,12.909967845659164,2893.0,2220.0,14.137931034482758,14.850267379679144,,,,,150.34758714809539
3503,785.2999877929688,1706.9067524115756,-0.031142982505973738,-0.16930865064548078,-9.833650072668767,11.0,13.0,75.0999984741211,-9.105703348566772e-05,-0.0008222237644586593,-0.007846597291434266,99.80000305175781,73.69999694824219,-0.4000000059604645,69.9000015258789,-0.2189863387756287,0.0,0.9497848118946051,17.0,15.0,417.0,15.0,8.0,0.0,12.906752411575562,2893.0,2220.0,14.142857142857142,14.844919786096257,,,,,150.3479488883049
3513,785.2999877929688,1706.903536977492,-0.031083971956021087,-0.16926267648198803,-9.833635934598886,11.0,13.0,75.0999984741211,-8.980612490017702e-05,-0.0008210340480670143,-0.007824910525825752,99.80000305175781,73.69999694824219,-0.4000000059604645,69.9000015258789,-0.21896690253619175,0.0,0.9497452144789847,17.0,15.0,417.0,15.0,8.0,0.0,12.903536977491962,2893.0,2220.0,14.147783251231527,14.83957219251337,,,,,150.34831062851438
3523,785.2999877929688,1706.9003215434084,-0.03102496140606844,-0.16921670231849525,-9.833621796529005,11.0,13.0,75.0999984741211,-8.855521631468633e-05,-0.0008198443316753693,-0.007803223760217238,99.80000305175781,73.69999694824219,-0.4000000059604645,69.9000015258789,-0.21894746629675482,0.0,0.9497056170633644,17.0,15.0,417.0,15.0,8.0,0.0,12.90032154340836,2893.0,2220.0,14.152709359605911,14.834224598930481,,,,,150.34867236872387
3533,785.2999877929688,1706.8971061093248,-0.03096595085611579,-0.16917072815500248,-9.833607658459123,11.0,13.0,75.0999984741211,-8.730430772919563e-05,-0.0008186546152837242,-0.007781536994608724,99.80000305175781,73.69999694824219,-0.4000000059604645,69.9000015258789,-0.2189280300573179,0.0,0.949666019647744,17.0,15.0,417.0,15.0,8.0,0.0,12.897106109324758,2893.0,2220.0,14.157635467980295,14.828877005347593,,,,,150.34903410893338
3543,785.2999877929688,1706.8938906752412,-0.030906940306163137,-0.1691247539915097,-9.833593520389242,11.0,13.0,75.0999984741211,-8.605339914370494e-05,-0.0008174648988920792,-0.00775985022900021,99.80000305175781,73.69999694824219,-0.4000000059604645,69.9000015258789,-0.21890859381788097,0.0,0.9496264222321237,17.0,15.0,417.0,15.0,8.0,0.0,12.893890675241158,2893.0,2220.0,14.16256157635468,14.823529411764707,,,,,150.34939584914287
3553,785.2999877929688,1706.8906752411576,-0.03084792975621049,-0.16907877982801692,-9.833579382319359,11.0,13.0,75.0999984741211,-8.480249055821424e-05,-0.0008162751825004341,-0.007738163463391696,99.80000305175781,73.69999694824219,-0.4000000059604645,69.9000015258789,-0.21888915757844402,0.0,0.9495868248165034,17.0,15.0,417.0,15.0,8.0,0.0,12.890675241157556,2893.0,2220.0,14.167487684729064,14.818181818181818,,,,,150.34975758935235
3563,785.2999877929688,1706.887459807074,-0.03078891920625784,-0.16903280566452414,-9.833565244249478,11.0,13.0,75.0999984741211,-8.355158197272355e-05,-0.000815085466108789,-0.007716476697783182,99.80000305175781,73.69999694824219,-0.4000000059604645,69.9000015258789,-0.2188697213390071,0.0,0.949547227400883,17.0,15.0,417.0,15.0,8.0,0.0,12.887459807073954,2893.0,2220.0,14.172413793103448,14.81283422459893,,,,,150.35011932956186
3573,785.2999877929688,1706.8842443729905,-0.030729908656305188,-0.1689868315010314,-9.833551106179597,11.0,13.0,75.0999984741211,-8.230067338723285e-05,-0.0008138957497171441,-0.007694789932174668,99.80000305175781,73.69999694824219,-0.4000000059604645,69.9000015258789,-0.21885028509957016,0.0,0.9495076299852626,17.0,15.0,417.0,15.0,8.0,0.0,12.884244372990354,2893.0,2220.0,14.177339901477833,14.807486631016042,,,,,150.35048106977135
3583,785.2999877929688,1706.8810289389069,-0.03067089810635254,-0.1689408573375386,-9.833536968109714,11.0,13.0,75.0999984741211,-8.104976480174216e-05,-0.000812706033325499,-0.007673103166566154,99.80000305175781,73.69999694824219,-0.4000000059604645,69.9000015258789,-0.21883084886013324,0.0,0.9494680325696423,17.0,15.0,417.0,15.0,8.0,0.0,12.881028938906752,2893.0,2220.0,14.182266009852217,14.802139037433156,,,,,150.35084280998083
3593,785.2999877929688,1706.877813504823,-0.03061188755639989,-0.16889488317404583,-9.833522830039833,11.0,13.0,75.0999984741211,-7.979885621625146e-05,-0.000811516316933854,-0.007651416400957639,99.80000305175781,73.69999694824219,-0.4000000059604645,69.9000015258789,-0.21881141262069628,0.0,0.949428435154022,17.0,15.0,417.0,15.0,8.0,0.0,12.877813504823152,2893.0,2220.0,14.187192118226601,14.796791443850267,,,,,150.35120455019035
3603,785.2999877929688,1706.8745980707395,-0.030552877006447238,-0.16884890901055305,-9.83350869196995,11.0,13.0,75.0999984741211,-7.854794763076077e-05,-0.0008103266005422089,-0.007629729635349125,99.80000305175781,73.69999694824219,-0.4000000059604645,69.9000015258789,-0.21879197638125936,0.0,0.9493888377384015,17.0,15.0,417.0,15.0,8.0,0.0,12.87459807073955,2893.0,2220.0,14.192118226600986,14.79144385026738,,,,,150.35156629039983
3613,785.2999877929688,1706.8713826366559,-0.03049386645649459,-0.16880293484706027,-9.833494553900069,11.0,13.0,75.0999984741211,-7.729703904527008e-05,-0.0008091368841505639,-0.007608042869740611,99.80000305175781,73.69999694824219,-0.4000000059604645,69.9000015258789,-0.21877254014182243,0.0,0.9493492403227812,17.0,15.0,417.0,15.0,8.0,0.0,12.871382636655948,2893.0,2220.0,14.19704433497537,14.786096256684491,,,,,150.35192803060932
3623,785.2999877929688,1706.8681672025723,-0.03043485590654194,-0.16875696068356752,-9.833480415830188,11.0,13.0,75.0999984741211,-7.604613045977938e-05,-0.0008079471677589189,-0.007586356104132096,99.80000305175781,73.69999694824219,-0.4000000059604645,69.9000015258789,-0.2187531039023855,0.0,0.9493096429071609,17.0,15.0,417.0,15.0,8.0,0.0,12.868167202572348,2893.0,2220.0,14.201970443349754,14.780748663101605,,,,,150.35228977081883
3633,785.2999877929688,1706.8649517684887,-0.03037584535658929,-0.16871098652007474,-9.833466277760305,11.0,13.0,75.0999984741211,-7.47952218742887e-05,-0.0008067574513672738,-0.007564669338523582,99.80000305175781,73.69999694824219,-0.4000000059604645,69.9000015258789,-0.21873366766294855,0.0,0.9492700454915405,17.0,15.0,417.0,15.0,8.0,0.0,12.864951768488746,2893.0,2220.0,14.206896551724139,14.775401069518717,,,,,150.3526515110283
3643,785.2999877929688,1706.8617363344051,-0.03031683480663664,-0.16866501235658196,-9.833452139690424,11.0,13.0,75.0999984741211,-7.354431328879799e-05,-0.0008055677349756288,-0.007542982572915068,99.80000305175781,73.69999694824219,-0.4000000059604645,69.9000015258789,-0.21871423142351162,0.0,0.9492304480759202,17.0,15.0,417.0,15.0,8.0,0.0,12.861736334405144,2893.0,2220.0,14.211822660098521,14.770053475935828,,,,,150.3530132512378
3653,785.2999877929688,1706.8585209003215,-0.03025782425668399,-0.16861903819308918,-9.833438001620541,11.0,13.0,75.0999984741211,-7.22934047033073e-05,-0.0008043780185839838,-0.007521295807306554,99.80000305175781,73.69999694824219,-0.4000000059604645,69.9000015258789,-0.2186947951840747,0.0,0.9491908506602998,17.0,15.0,417.0,15.0,8.0,0.0,12.858520900321544,2893.0,2220.0,14.216748768472906,14.764705882352942,,,,,150.3533749914473
3663,785.2999877929688,1706.855305466238,-0.03019881370673134,-0.1685730640295964,-9.83342386355066,11.0,13.0,75.0999984741211,-7.10424961178166e-05,-0.0008031883021923387,-0.00749960904169804,99.80000305175781,73.69999694824219,-0.4000000059604645,69.9000015258789,-0.21867535894463777,0.0,0.9491512532446794,17.0,15.0,417.0,15.0,8.0,0.0,12.855305466237942,2893.0,2220.0,14.22167487684729,14.759358288770054,,,,,150.3537367316568
3673,785.2999877929688,1706.8520900321544,-0.03013980315677869,-0.16852708986610365,-9.833409725480779,11.0,13.0,75.0999984741211,-6.979158753232591e-05,-0.0008019985858006937,-0.007477922276089526,99.80000305175781,73.69999694824219,-0.4000000059604645,69.9000015258789,-0.21865592270520082,0.0,0.9491116558290591,17.0,15.0,417.0,15.0,8.0,0.0,12.85209003215434,2893.0,2220.0,14.226600985221674,14.754010695187166,,,,,150.35409847186628
3683,785.2999877929688,1706.8488745980708,-0.030080792606826043,-0.16848111570261087,-9.833395587410896,11.0,13.0,75.0999984741211,-6.854067894683521e-05,-0.0008008088694090486,-0.007456235510481012,99.80000305175781,73.69999694824219,-0.4000000059604645,69.9000015258789,-0.2186364864657639,0.0,0.9490720584134388,17.0,15.0,417.0,15.0,8.0,0.0,12.84887459807074,2893.0,2220.0,14.231527093596059,14.748663101604278,,,,,150.3544602120758
3693,785.2999877929688,1706.8456591639872,-0.030021782056873392,-0.1684351415391181,-9.833381449341015,11.0,13.0,75.0999984741211,-6.728977036134452e-05,-0.0007996191530174035,-0.007434548744872497,99.80000305175781,73.69999694824219,-0.4000000059604645,69.9000015258789,-0.21861705022632696,0.0,0.9490324609978184,17.0,15.0,417.0,15.0,8.0,0.0,12.845659163987138,2893.0,2220.0,14.236453201970443,14.743315508021391,,,,,150.35482195228528
3703,785.2999877929688,1706.8424437299036,-0.02996277150692074,-0.16838916737562531,-9.833367311271132,11.0,13.0,75.0999984741211,-6.603886177585382e-05,-0.0007984294366257586,-0.007412861979263983,99.80000305175781,73.69999694824219,-0.4000000059604645,69.9000015258789,-0.21859761398689004,0.0,0.948992863582198,17.0,15.0,417.0,15.0,8.0,0.0,12.842443729903536,2893.0,2220.0,14.241379310344827,14.737967914438503,,,,,150.35518369249476
3713,785.2999877929688,1706.83922829582,-0.029903760956968093,-0.16834319321213254,-9.833353173201251,11.0,13.0,75.0999984741211,-6.478795319036314e-05,-0.0007972397202341135,-0.007391175213655469,99.80000305175781,73.69999694824219,-0.4000000059604645,69.9000015258789,-0.21857817774745308,0.0,0.9489532661665777,17.0,15.0,417.0,15.0,8.0,0.0,12.839228295819936,2893.0,2220.0,14.246305418719212,14.732620320855615,,,,,150.35554543270428
3723,785.2999877929688,1706.8360128617364,-0.029844750407015442,-0.16829721904863978,-9.83333903513137,11.0,13.0,75.0999984741211,-6.353704460487243e-05,-0.0007960500038424684,-0.007369488448046954,99.80000305175781,73.69999694824219,-0.4000000059604645,69.9000015258789,-0.21855874150801616,0.0,0.9489136687509573,17.0,15.0,417.0,15.0,8.0,0.0,12.836012861736334,2893.0,2220.0,14.251231527093596,14.727272727272727,,,,,150.35590717291376
3733,785.2999877929688,1706.8327974276526,-0.029785739857062794,-0.168251244885147,-9.833324897061487,11.0,13.0,75.0999984741211,-6.228613601938175e-05,-0.0007948602874508234,-0.00734780168243844,99.80000305175781,73.69999694824219,-0.4000000059604645,69.9000015258789,-0.21853930526857923,0.0,0.948874071335337,17.0,15.0,417.0,15.0,8.0,0.0,12.832797427652734,2893.0,2220.0,14.25615763546798,14.72192513368984,,,,,150.35626891312324
3743,785.2999877929688,1706.829581993569,-0.029726729307110143,-0.16820527072165423,-9.833310758991606,11.0,13.0,75.0999984741211,-6.103522743389104e-05,-0.0007936705710591784,-0.007326114916829926,99.80000305175781,73.69999694824219,-0.4000000059604645,69.9000015258789,-0.2185198690291423,0.0,0.9488344739197166,17.0,15.0,417.0,15.0,8.0,0.0,12.829581993569132,2893.0,2220.0,14.261083743842365,14.716577540106952,,,,,150.35663065333276
3753,785.2999877929688,1706.8263665594855,-0.029667718757157492,-0.16815929655816145,-9.833296620921724,11.0,13.0,75.0999984741211,-5.9784318848400355e-05,-0.0007924808546675334,-0.007304428151221412,99.80000305175781,73.69999694824219,-0.4000000059604645,69.9000015258789,-0.21850043278970535,0.0,0.9487948765040962,17.0,15.0,417.0,15.0,8.0,0.0,12.82636655948553,2893.0,2220.0,14.266009852216749,14.711229946524064,,,,,150.35699239354224
3763,785.2999877929688,1706.8231511254019,-0.02960870820720484,-0.16811332239466867,-9.833282482851843,11.0,13.0,75.0999984741211,-5.8533410262909654e-05,-0.0007912911382758883,-0.007282741385612898,99.80000305175781,73.69999694824219,-0.4000000059604645,69.9000015258789,-0.21848099655026842,0.0,0.9487552790884759,17.0,15.0,417.0,15.0,8.0,0.0,12.82315112540193,2893.0,2220.0,14.270935960591133,14.705882352941176,,,,,150.35735413375176
3773,785.2999877929688,1706.8199356913183,-0.029549697657252193,-0.1680673482311759,-9.83326834478196,11.0,13.0,75.0999984741211,-5.7282501677418965e-05,-0.0007901014218842432,-0.007261054620004384,99.80000305175781,73.69999694824219,-0.4000000059604645,69.9000015258789,-0.2184615603108315,0.0,0.9487156816728556,17.0,15.0,417.0,15.0,8.0,0.0,12.819935691318328,2893.0,2220.0,14.275862068965518,14.70053475935829,,,,,150.35771587396124
3783,785.2999877929688,1706.8167202572347,-0.029490687107299546,-0.16802137406768314,-9.833254206712079,11.0,13.0,75.0999984741211,-5.603159309192828e-05,-0.0007889117054925983,-0.007239367854395869,99.80000305175781,73.69999694824219,-0.4000000059604645,69.9000015258789,-0.21844212407139457,0.0,0.9486760842572352,17.0,15.0,417.0,15.0,8.0,0.0,12.816720257234726,2893.0,2220.0,14.280788177339902,14.695187165775401,,,,,150.35807761417072
3793,785.2999877929688,1706.813504823151,-0.029431676557346895,-0.16797539990419036,-9.833240068642198,11.0,13.0,75.0999984741211,-5.4780684506437576e-05,-0.0007877219891009532,-0.007217681088787355,99.80000305175781,73.69999694824219,-0.4000000059604645,69.9000015258789,-0.21842268783195762,0.0,0.9486364868416148,17.0,15.0,417.0,15.0,8.0,0.0,12.813504823151126,2893.0,2220.0,14.285714285714286,14.689839572192513,,,,,150.35843935438024
3803,785.2999877929688,1706.8102893890675,-0.029372666007394244,-0.16792942574069758,-9.833225930572315,11.0,13.0,75.0999984741211,-5.352977592094689e-05,-0.0007865322727093082,-0.007195994323178841,99.80000305175781,73.69999694824219,-0.4000000059604645,69.9000015258789,-0.2184032515925207,0.0,0.9485968894259945,17.0,15.0,417.0,15.0,8.0,0.0,12.810289389067524,2893.0,2220.0,14.290640394088669,14.684491978609625,,,,,150.35880109458972
3813,785.2999877929688,1706.807073954984,-0.029313655457441593,-0.1678834515772048,-9.833211792502434,11.0,13.0,75.0999984741211,-5.2278867335456186e-05,-0.0007853425563176631,-0.007174307557570327,99.80000305175781,73.69999694824219,-0.4000000059604645,69.9000015258789,-0.21838381535308377,0.0,0.9485572920103741,17.0,15.0,417.0,15.0,8.0,0.0,12.807073954983922,2893.0,2220.0,14.295566502463053,14.679144385026738,,,,,150.3591628347992
3823,785.2999877929688,1706.8038585209003,-0.029254644907488945,-0.16783747741371202,-9.833197654432551,11.0,13.0,75.0999984741211,-5.10279587499655e-05,-0.000784152839926018,-0.007152620791961812,99.80000305175781,73.69999694824219,-0.4000000059604645,69.9000015258789,-0.21836437911364684,0.0,0.9485176945947538,17.0,15.0,417.0,15.0,8.0,0.0,12.803858520900322,2893.0,2220.0,14.300492610837438,14.67379679144385,,,,,150.35952457500872
3833,785.2999877929688,1706.8006430868168,-0.029195634357536294,-0.16779150325021927,-9.83318351636267,11.0,13.0,75.0999984741211,-4.9777050164474796e-05,-0.0007829631235343731,-0.007130934026353298,99.80000305175781,73.69999694824219,-0.4000000059604645,69.9000015258789,-0.21834494287420989,0.0,0.9484780971791335,17.0,15.0,417.0,15.0,8.0,0.0,12.80064308681672,2893.0,2220.0,14.305418719211822,14.668449197860962,,,,,150.3598863152182
3843,785.2999877929688,1706.7974276527332,-0.029136623807583646,-0.1677455290867265,-9.833169378292789,11.0,13.0,75.0999984741211,-4.852614157898411e-05,-0.000781773407142728,-0.007109247260744784,99.80000305175781,73.69999694824219,-0.4000000059604645,69.9000015258789,-0.21832550663477296,0.0,0.948438499763513,17.0,15.0,417.0,15.0,8.0,0.0,12.797427652733118,2893.0,2220.0,14.310344827586206,14.663101604278076,,,,,150.3602480554277
3853,785.2999877929688,1706.7942122186496,-0.029077613257630995,-0.1676995549232337,-9.833155240222906,11.0,13.0,75.0999984741211,-4.7275232993493406e-05,-0.0007805836907510829,-0.00708756049513627,99.80000305175781,73.69999694824219,-0.4000000059604645,69.9000015258789,-0.21830607039533603,0.0,0.9483989023478927,17.0,15.0,417.0,15.0,8.0,0.0,12.794212218649518,2893.0,2220.0,14.31527093596059,14.657754010695188,,,,,150.3606097956372
3863,785.2999877929688,1706.790996784566,-0.029018602707678344,-0.16765358075974093,-9.833141102153025,11.0,13.0,75.0999984741211,-4.602432440800272e-05,-0.0007793939743594379,-0.007065873729527756,99.80000305175781,73.69999694824219,-0.4000000059604645,69.9000015258789,-0.2182866341558991,0.0,0.9483593049322724,17.0,15.0,417.0,15.0,8.0,0.0,12.790996784565916,2893.0,2220.0,14.320197044334975,14.6524064171123,,,,,150.3609715358467
3873,785.2999877929688,1706.7877813504824,-0.028959592157725696,-0.16760760659624815,-9.833126964083142,11.0,13.0,75.0999984741211,-4.4773415822512016e-05,-0.0007782042579677929,-0.007044186963919242,99.80000305175781,73.69999694824219,-0.4000000059604645,69.9000015258789,-0.21826719791646215,0.0,0.948319707516652,17.0,15.0,417.0,15.0,8.0,0.0,12.787781350482316,2893.0,2220.0,14.32512315270936,14.647058823529411,,,,,150.36133327605617
3883,785.2999877929688,1706.7845659163986,-0.028900581607773045,-0.1675616324327554,-9.833112826013261,11.0,13.0,75.0999984741211,-4.352250723702133e-05,-0.0007770145415761478,-0.007022500198310728,99.80000305175781,73.69999694824219,-0.4000000059604645,69.9000015258789,-0.21824776167702523,0.0,0.9482801101010316,17.0,15.0,417.0,15.0,8.0,0.0,12.784565916398714,2893.0,2220.0,14.330049261083744,14.641711229946525,,,,,150.36169501626568
3893,785.2999877929688,1706.781350482315,-0.028841571057820398,-0.16751565826926262,-9.83309868794338,11.0,13.0,75.0999984741211,-4.2271598651530626e-05,-0.0007758248251845028,-0.007000813432702213,99.80000305175781,73.69999694824219,-0.4000000059604645,69.9000015258789,-0.2182283254375883,0.0,0.9482405126854113,17.0,15.0,417.0,15.0,8.0,0.0,12.781350482315112,2893.0,2220.0,14.334975369458128,14.636363636363637,,,,,150.36205675647517
3903,785.2999877929688,1706.7781350482314,-0.028782560507867747,-0.16746968410576984,-9.833084549873497,11.0,13.0,75.0999984741211,-4.102069006603994e-05,-0.0007746351087928577,-0.006979126667093699,99.80000305175781,73.69999694824219,-0.4000000059604645,69.9000015258789,-0.21820888919815137,0.0,0.9482009152697909,17.0,15.0,417.0,15.0,8.0,0.0,12.778135048231512,2893.0,2220.0,14.339901477832512,14.631016042780749,,,,,150.36241849668465
3913,785.2999877929688,1706.7749196141478,-0.028723549957915095,-0.16742370994227707,-9.833070411803616,11.0,13.0,75.0999984741211,-3.9769781480549236e-05,-0.0007734453924012128,-0.006957439901485184,99.80000305175781,73.69999694824219,-0.4000000059604645,69.9000015258789,-0.21818945295871442,0.0,0.9481613178541706,17.0,15.0,417.0,15.0,8.0,0.0,12.77491961414791,2893.0,2220.0,14.344827586206897,14.62566844919786,,,,,150.36278023689417
3923,785.2999877929688,1706.7717041800643,-0.028664539407962448,-0.1673777357787843,-9.833056273733733,11.0,13.0,75.0999984741211,-3.851887289505855e-05,-0.0007722556760095677,-0.00693575313587667,99.80000305175781,73.69999694824219,-0.4000000059604645,69.9000015258789,-0.2181700167192775,0.0,0.9481217204385503,17.0,15.0,417.0,15.0,8.0,0.0,12.771704180064308,2893.0,2220.0,14.349753694581281,14.620320855614974,,,,,150.36314197710365
3933,785.2999877929688,1706.7684887459807,-0.028605528858009797,-0.16733176161529154,-9.833042135663852,11.0,13.0,75.0999984741211,-3.726796430956786e-05,-0.0007710659596179226,-0.006914066370268156,99.80000305175781,73.69999694824219,-0.4000000059604645,69.9000015258789,-0.21815058047984057,0.0,0.9480821230229298,17.0,15.0,417.0,15.0,8.0,0.0,12.768488745980708,2893.0,2220.0,14.354679802955665,14.614973262032086,,,,,150.36350371731314
3943,785.2999877929688,1706.765273311897,-0.02854651830805715,-0.16728578745179876,-9.833027997593971,11.0,13.0,75.0999984741211,-3.601705572407716e-05,-0.0007698762432262776,-0.006892379604659642,99.80000305175781,73.69999694824219,-0.4000000059604645,69.9000015258789,-0.21813114424040364,0.0,0.9480425256073095,17.0,15.0,417.0,15.0,8.0,0.0,12.765273311897106,2893.0,2220.0,14.35960591133005,14.609625668449198,,,,,150.36386545752265
3953,785.2999877929688,1706.7620578778135,-0.028487507758104498,-0.16723981328830598,-9.833013859524089,11.0,13.0,75.0999984741211,-3.4766147138586456e-05,-0.0007686865268346325,-0.006870692839051128,99.80000305175781,73.69999694824219,-0.4000000059604645,69.9000015258789,-0.2181117080009667,0.0,0.9480029281916892,17.0,15.0,417.0,15.0,8.0,0.0,12.762057877813504,2893.0,2220.0,14.364532019704434,14.60427807486631,,,,,150.36422719773213
3963,785.2999877929688,1706.75884244373,-0.028428497208151847,-0.1671938391248132,-9.832999721454208,11.0,13.0,75.0999984741211,-3.351523855309578e-05,-0.0007674968104429876,-0.006849006073442614,99.80000305175781,73.69999694824219,-0.4000000059604645,69.9000015258789,-0.21809227176152976,0.0,0.9479633307760689,17.0,15.0,417.0,15.0,8.0,0.0,12.758842443729904,2893.0,2220.0,14.369458128078819,14.598930481283423,,,,,150.36458893794162
3973,785.2999877929688,1706.7556270096463,-0.0283694866581992,-0.16714786496132042,-9.832985583384325,11.0,13.0,75.0999984741211,-3.226432996760508e-05,-0.0007663070940513425,-0.0068273193078341,99.80000305175781,73.69999694824219,-0.4000000059604645,69.9000015258789,-0.21807283552209283,0.0,0.9479237333604484,17.0,15.0,417.0,15.0,8.0,0.0,12.755627009646302,2893.0,2220.0,14.374384236453203,14.593582887700535,,,,,150.36495067815113
3983,785.2999877929688,1706.7524115755627,-0.028310476108246548,-0.16710189079782767,-9.832971445314444,11.0,13.0,75.0999984741211,-3.101342138211438e-05,-0.0007651173776596974,-0.006805632542225586,99.80000305175781,73.69999694824219,-0.4000000059604645,69.9000015258789,-0.2180533992826559,0.0,0.9478841359448281,17.0,15.0,417.0,15.0,8.0,0.0,12.7524115755627,2893.0,2220.0,14.379310344827585,14.588235294117647,,,,,150.36531241836062
3993,785.2999877929688,1706.7491961414792,-0.0282514655582939,-0.1670559166343349,-9.832957307244563,11.0,13.0,75.0999984741211,-2.9762512796623677e-05,-0.0007639276612680524,-0.006783945776617071,99.80000305175781,73.69999694824219,-0.4000000059604645,69.9000015258789,-0.21803396304321895,0.0,0.9478445385292078,17.0,15.0,417.0,15.0,8.0,0.0,12.7491961414791,2893.0,2220.0,14.38423645320197,14.582887700534759,,,,,150.3656741585701
4003,785.2999877929688,1706.7459807073956,-0.02819245500834125,-0.1670099424708421,-9.83294316917468,11.0,13.0,75.0999984741211,-2.8511604211133002e-05,-0.0007627379448764074,-0.006762259011008557,99.80000305175781,73.69999694824219,-0.4000000059604645,69.9000015258789,-0.21801452680378203,0.0,0.9478049411135874,17.0,15.0,417.0,15.0,8.0,0.0,12.745980707395498,2893.0,2220.0,14.389162561576354,14.577540106951872,,,,,150.36603589877961
4013,785.2999877929688,1706.742765273312,-0.0281334444583886,-0.16696396830734933,-9.832929031104799,11.0,13.0,75.0999984741211,-2.72606956256423e-05,-0.0007615482284847623,-0.0067405722454000425,99.80000305175781,73.69999694824219,-0.4000000059604645,69.9000015258789,-0.2179950905643451,0.0,0.947765343697967,17.0,15.0,417.0,15.0,8.0,0.0,12.742765273311898,2893.0,2220.0,14.394088669950738,14.572192513368984,,,,,150.3663976389891
4023,785.2999877929688,1706.7395498392284,-0.028074433908435947,-0.16691799414385655,-9.832914893034916,11.0,13.0,75.0999984741211,-2.60097870401516e-05,-0.0007603585120931173,-0.0067188854797915285,99.80000305175781,73.69999694824219,-0.4000000059604645,69.9000015258789,-0.21797565432490817,0.0,0.9477257462823467,17.0,15.0,417.0,15.0,8.0,0.0,12.739549839228296,2893.0,2220.0,14.399014778325123,14.566844919786096,,,,,150.36675937919858
4033,785.2999877929688,1706.7363344051446,-0.0280154233584833,-0.16687201998036377,-9.832900754965035,11.0,13.0,75.0999984741211,-2.4758878454660897e-05,-0.0007591687957014722,-0.0066971987141830145,99.80000305175781,73.69999694824219,-0.4000000059604645,69.9000015258789,-0.21795621808547122,0.0,0.9476861488667263,17.0,15.0,417.0,15.0,8.0,0.0,12.736334405144694,2893.0,2220.0,14.403940886699507,14.56149732620321,,,,,150.3671211194081
4043,785.2999877929688,1706.733118971061,-0.02795641280853065,-0.16682604581687102,-9.832886616895154,11.0,13.0,75.0999984741211,-2.3507969869170222e-05,-0.0007579790793098271,-0.0066755119485745005,99.80000305175781,73.69999694824219,-0.4000000059604645,69.9000015258789,-0.2179367818460343,0.0,0.947646551451106,17.0,15.0,417.0,15.0,8.0,0.0,12.733118971061094,2893.0,2220.0,14.408866995073891,14.556149732620321,,,,,150.36748285961758
4053,785.2999877929688,1706.7299035369774,-0.027897402258578,-0.16678007165337824,-9.832872478825271,11.0,13.0,75.0999984741211,-2.225706128367952e-05,-0.0007567893629181822,-0.0066538251829659865,99.80000305175781,73.69999694824219,-0.4000000059604645,69.9000015258789,-0.21791734560659737,0.0,0.9476069540354857,17.0,15.0,417.0,15.0,8.0,0.0,12.729903536977492,2893.0,2220.0,14.413793103448276,14.550802139037433,,,,,150.36784459982707
4063,785.2999877929688,1706.7266881028938,-0.02783839170862535,-0.16673409748988546,-9.83285834075539,11.0,13.0,75.0999984741211,-2.100615269818882e-05,-0.0007555996465265371,-0.0066321384173574725,99.80000305175781,73.69999694824219,-0.4000000059604645,69.9000015258789,-0.21789790936716044,0.0,0.9475673566198652,17.0,15.0,417.0,15.0,8.0,0.0,12.72668810289389,2893.0,2220.0,14.41871921182266,14.545454545454545,,,,,150.36820634003658
4073,785.2999877929688,1706.7234726688102,-0.0277793811586727,-0.16668812332639268,-9.832844202685507,11.0,13.0,75.0999984741211,-1.9755244112698117e-05,-0.000754409930134892,-0.0066104516517489584,99.80000305175781,73.69999694824219,-0.4000000059604645,69.9000015258789,-0.2178784731277235,0.0,0.9475277592042449,17.0,15.0,417.0,15.0,8.0,0.0,12.72347266881029,2893.0,2220.0,14.423645320197044,14.540106951871659,,,,,150.36856808024606
4083,785.2999877929688,1706.7202572347267,-0.02772037060872005,-0.1666421491628999,-9.832830064615626,11.0,13.0,75.0999984741211,-1.8504335527207442e-05,-0.000753220213743247,-0.006588764886140444,99.80000305175781,73.69999694824219,-0.4000000059604645,69.9000015258789,-0.21785903688828656,0.0,0.9474881617886246,17.0,15.0,417.0,15.0,8.0,0.0,12.720257234726688,2893.0,2220.0,14.428571428571429,14.53475935828877,,,,,150.36892982045558
4093,785.2999877929688,1706.717041800643,-0.0276613600587674,-0.16659617499940715,-9.832815926545745,11.0,13.0,75.0999984741211,-1.725342694171674e-05,-0.0007520304973516021,-0.0065670781205319296,99.80000305175781,73.69999694824219,-0.4000000059604645,69.9000015258789,-0.21783960064884964,0.0,0.9474485643730042,17.0,15.0,417.0,15.0,8.0,0.0,12.717041800643086,2893.0,2220.0,14.433497536945813,14.529411764705882,,,,,150.36929156066506
4103,785.2999877929688,1706.7138263665595,-0.027602349508814752,-0.16655020083591437,-9.832801788475862,11.0,13.0,75.0999984741211,-1.600251835622604e-05,-0.000750840780959957,-0.0065453913549234155,99.80000305175781,73.69999694824219,-0.4000000059604645,69.9000015258789,-0.2178201644094127,0.0,0.9474089669573839,17.0,15.0,417.0,15.0,8.0,0.0,12.713826366559486,2893.0,2220.0,14.438423645320198,14.524064171122994,,,,,150.36965330087455
4113,785.2999877929688,1706.710610932476,-0.0275433389588621,-0.1665042266724216,-9.832787650405981,11.0,13.0,75.0999984741211,-1.4751609770735364e-05,-0.0007496510645683119,-0.006523704589314901,99.80000305175781,73.69999694824219,-0.4000000059604645,69.9000015258789,-0.21780072816997575,0.0,0.9473693695417635,17.0,15.0,417.0,15.0,8.0,0.0,12.710610932475884,2893.0,2220.0,14.443349753694582,14.518716577540108,,,,,150.37001504108406
4123,785.2999877929688,1706.7073954983923,-0.02748432840890945,-0.16645825250892882,-9.832773512336098,11.0,13.0,75.0999984741211,-1.3500701185244663e-05,-0.0007484613481766669,-0.006502017823706387,99.80000305175781,73.69999694824219,-0.4000000059604645,69.9000015258789,-0.21778129193053883,0.0,0.9473297721261431,17.0,15.0,417.0,15.0,8.0,0.0,12.707395498392282,2893.0,2220.0,14.448275862068966,14.51336898395722,,,,,150.37037678129354
4133,785.2999877929688,1706.7041800643087,-0.027425317858956803,-0.16641227834543604,-9.832759374266217,11.0,13.0,75.0999984741211,-1.2249792599753961e-05,-0.0007472716317850218,-0.006480331058097873,99.80000305175781,73.69999694824219,-0.4000000059604645,69.9000015258789,-0.2177618556911019,0.0,0.9472901747105228,17.0,15.0,417.0,15.0,8.0,0.0,12.704180064308682,2893.0,2220.0,14.45320197044335,14.508021390374331,,,,,150.37073852150303
4143,785.2999877929688,1706.7009646302251,-0.02736630730900415,-0.1663663041819433,-9.832745236196336,11.0,13.0,75.0999984741211,-1.099888401426326e-05,-0.0007460819153933768,-0.006458644292489359,99.80000305175781,73.69999694824219,-0.4000000059604645,69.9000015258789,-0.21774241945166498,0.0,0.9472505772949025,17.0,15.0,417.0,15.0,8.0,0.0,12.70096463022508,2893.0,2220.0,14.458128078817733,14.502673796791443,,,,,150.37110026171254
4153,785.2999877929688,1706.6977491961416,-0.027307296759051504,-0.1663203300184505,-9.832731098126454,11.0,13.0,75.0999984741211,-9.747975428772585e-06,-0.0007448921990017318,-0.006436957526880845,99.80000305175781,73.69999694824219,-0.4000000059604645,69.9000015258789,-0.21772298321222802,0.0,0.947210979879282,17.0,15.0,417.0,15.0,8.0,0.0,12.69774919614148,2893.0,2220.0,14.463054187192117,14.497326203208557,,,,,150.37146200192203
